City_ID,City,Country,Lat,Lng,Max Temp,Humidity,Cloudiness,Wind Speed,Current Description,Rain (inches),Snow (inches)
0,mataura,NZ,-46.1927,168.8643,54.48,64,28,11.86,scattered clouds,0.0,0
1,albany,US,42.6001,-73.9662,66.92,70,85,3.44,overcast clouds,0.0,0
2,thoen,TH,17.6129,99.2161,86.74,67,100,3.31,overcast clouds,0.0,0
3,hobart,AU,-42.8794,147.3294,57.25,69,20,9.22,few clouds,0.0,0
4,butaritari,KI,3.0707,172.7902,82.45,76,8,21.47,light rain,0.37,0
5,mandera,KE,3.9366,41.867,73.2,67,43,14.83,scattered clouds,0.0,0
6,kokopo,PG,-4.352,152.2633,84.67,66,100,3.67,overcast clouds,0.0,0
7,kapaa,US,22.0752,-159.319,84.18,79,65,5.99,broken clouds,0.0,0
8,srednekolymsk,RU,67.45,153.6833,79.56,33,100,13.2,overcast clouds,0.0,0
9,naze,JP,28.3667,129.4833,80.8,79,41,12.17,scattered clouds,0.0,0
10,eregli,TR,37.5133,34.0467,60.8,60,0,5.12,clear sky,0.0,0
11,busselton,AU,-33.65,115.3333,56.62,77,100,10.04,overcast clouds,0.0,0
12,rikitea,PF,-23.1203,-134.9692,75.16,73,4,8.43,clear sky,0.0,0
13,chuy,UY,-33.6971,-53.4616,55.38,98,89,6.62,overcast clouds,0.0,0
14,taoudenni,ML,22.6783,-3.9836,95.47,10,0,1.99,clear sky,0.0,0
15,suez,EG,29.9737,32.5263,77.94,57,0,6.46,clear sky,0.0,0
16,isangel,VU,-19.55,169.2667,78.82,71,13,13.13,few clouds,0.0,0
17,severo-kurilsk,RU,50.6789,156.125,55.53,78,89,10.2,overcast clouds,0.0,0
18,jumla,NP,29.2747,82.1838,73.38,74,55,3.74,broken clouds,0.0,0
19,beringovskiy,RU,63.05,179.3167,44.78,97,100,3.62,overcast clouds,0.0,0
20,fernie,CA,49.5,-115.0687,56.43,91,30,3.44,scattered clouds,0.0,0
21,saryozek,KZ,44.3583,77.9753,59.67,82,100,13.04,overcast clouds,0.0,0
22,ushuaia,AR,-54.8,-68.3,33.46,75,0,3.44,clear sky,0.0,0
23,mecca,SA,21.4267,39.8261,83.59,31,66,4.07,broken clouds,0.0,0
24,beisfjord,NO,68.3751,17.5988,64.04,77,74,6.44,broken clouds,0.0,0
25,xacmaz,AZ,41.4635,48.806,76.64,36,0,6.91,clear sky,0.0,0
26,port alfred,ZA,-33.5906,26.891,57.18,93,68,7.0,broken clouds,0.0,0
27,tuktoyaktuk,CA,69.4541,-133.0374,60.35,61,41,3.94,light rain,0.17,0
28,chokurdakh,RU,70.6333,147.9167,71.83,54,100,12.19,overcast clouds,0.0,0
29,ilulissat,GL,69.2167,-51.1,44.62,70,11,3.44,few clouds,0.0,0
30,yulara,AU,-25.2406,130.9889,55.96,28,0,11.1,clear sky,0.0,0
31,portland,US,45.5234,-122.6762,76.55,51,0,6.91,clear sky,0.0,0
32,mahebourg,MU,-20.4081,57.7,68.25,71,96,18.19,overcast clouds,0.0,0
33,luderitz,NA,-26.6481,15.1594,52.54,85,0,6.35,clear sky,0.0,0
34,charagua,BO,-19.8,-63.2167,66.33,70,88,3.36,overcast clouds,0.0,0
35,rawson,AR,-43.3002,-65.1023,49.37,46,94,26.82,overcast clouds,0.0,0
36,nadym,RU,65.5333,72.5167,49.24,73,100,8.93,overcast clouds,0.0,0
37,port blair,IN,11.6667,92.75,77.04,88,100,10.36,light rain,1.0,0
38,vardo,NO,70.3705,31.1107,48.18,93,100,8.05,overcast clouds,0.0,0
39,waverly,US,42.7392,-84.6208,80.53,63,100,9.22,overcast clouds,0.0,0
40,kiruna,SE,67.8557,20.2251,54.52,88,75,3.44,broken clouds,0.0,0
41,komsomolskiy,UZ,40.4272,71.7189,79.52,14,1,25.32,clear sky,0.0,0
42,alencon,FR,48.4333,0.0833,47.93,96,3,4.63,clear sky,0.0,0
43,wageningen,NL,51.9667,5.6667,57.11,93,100,1.14,overcast clouds,0.0,0
44,hami,CN,42.8,93.45,92.35,10,3,7.56,clear sky,0.0,0
45,nosy varika,MG,-20.5833,48.5333,68.2,84,100,2.59,light rain,0.39,0
46,cape town,ZA,-33.9258,18.4232,55.9,76,0,11.99,clear sky,0.0,0
47,kavieng,PG,-2.5744,150.7967,83.82,76,100,12.41,light rain,0.39,0
48,esperance,AU,-33.8667,121.9,60.64,36,0,23.0,clear sky,0.0,0
49,tiksi,RU,71.6872,128.8694,38.39,89,100,22.84,overcast clouds,0.0,0
50,klaksvik,FO,62.2266,-6.589,47.32,76,72,16.78,broken clouds,0.0,0
51,port lincoln,AU,-34.7333,135.8667,56.07,69,1,11.03,clear sky,0.0,0
52,chicama,PE,-7.8447,-79.1469,59.54,83,15,5.21,few clouds,0.0,0
53,taltal,CL,-25.4,-70.4833,60.24,62,40,5.41,scattered clouds,0.0,0
54,olafsvik,IS,64.8945,-23.7142,48.65,75,88,2.73,overcast clouds,0.0,0
55,hilo,US,19.7297,-155.09,80.28,85,83,3.0,broken clouds,0.0,0
56,harper,LR,4.375,-7.7169,76.3,80,100,7.92,overcast clouds,0.0,0
57,yellowknife,CA,62.456,-114.3525,64.8,41,6,5.55,clear sky,0.0,0
58,sioux lookout,CA,50.1001,-91.917,59.13,97,100,4.03,moderate rain,2.37,0
59,constitucion,CL,-35.3333,-72.4167,47.75,85,4,1.86,clear sky,0.0,0
60,gladstone,AU,-23.85,151.25,53.53,87,100,9.22,light rain,0.61,0
61,clonmel,IE,52.355,-7.7039,57.42,92,100,5.97,overcast clouds,0.0,0
62,xai-xai,MZ,-25.0519,33.6442,61.05,92,0,2.71,clear sky,0.0,0
63,san ignacio,BZ,17.1561,-89.0714,77.14,94,0,0.0,clear sky,0.0,0
64,east london,ZA,-33.0153,27.9116,59.54,80,22,6.4,few clouds,0.0,0
65,hithadhoo,MV,-0.6,73.0833,82.0,72,56,3.11,broken clouds,0.0,0
66,okhotsk,RU,59.3833,143.3,60.75,76,23,13.27,few clouds,0.0,0
67,salcia tudor,RO,45.3667,27.5167,68.14,47,13,2.77,few clouds,0.0,0
68,nuuk,GL,64.1835,-51.7216,47.01,93,75,12.66,light rain,0.0,0
69,staritsa,RU,56.5075,34.9354,62.85,85,87,3.96,overcast clouds,0.0,0
70,westport,US,41.1415,-73.3579,73.09,64,64,4.0,broken clouds,0.0,0
71,port elizabeth,ZA,-33.918,25.5701,53.31,99,71,1.99,broken clouds,0.0,0
72,chernyshevskiy,RU,63.0128,112.4714,70.95,44,100,2.55,overcast clouds,0.0,0
73,hermanus,ZA,-34.4187,19.2345,50.77,77,0,6.17,clear sky,0.0,0
74,dikson,RU,73.5069,80.5464,35.22,98,100,2.95,overcast clouds,0.0,0
75,celestun,MX,20.8667,-90.4,80.82,80,74,14.72,broken clouds,0.0,0
76,saskylakh,RU,71.9167,114.0833,53.51,49,91,5.26,overcast clouds,0.0,0
77,yar-sale,RU,66.8333,70.8333,48.81,86,100,15.99,overcast clouds,0.0,0
78,samarai,PG,-10.6167,150.6667,83.7,73,31,12.59,scattered clouds,0.0,0
79,faya,SA,18.3851,42.4509,63.12,45,4,6.67,clear sky,0.0,0
80,upernavik,GL,72.7868,-56.1549,37.78,88,0,12.01,clear sky,0.0,0
81,thompson,CA,55.7435,-97.8558,58.12,47,79,3.87,broken clouds,0.0,0
82,punta arenas,CL,-53.15,-70.9167,33.91,80,100,4.12,overcast clouds,0.0,0
83,ostrovnoy,RU,68.0531,39.5131,52.05,94,95,4.45,overcast clouds,0.0,0
84,lorengau,PG,-2.0226,147.2712,85.3,68,79,6.31,broken clouds,0.0,0
85,umm lajj,SA,25.0213,37.2685,83.35,58,39,3.49,scattered clouds,0.0,0
86,lisakovsk,KZ,52.5369,62.4936,51.42,82,100,15.68,overcast clouds,0.0,0
87,cherskiy,RU,68.75,161.3,70.81,39,100,16.55,overcast clouds,0.0,0
88,castro,BR,-24.7911,-50.0119,55.47,75,100,3.24,overcast clouds,0.0,0
89,mar del plata,AR,-38.0023,-57.5575,42.1,100,0,0.0,clear sky,0.0,0
90,saint-philippe,RE,-21.3585,55.7679,64.22,81,48,11.07,scattered clouds,0.0,0
91,balykshi,KZ,47.0667,51.8667,62.6,82,75,6.71,broken clouds,0.0,0
92,bambous virieux,MU,-20.3428,57.7575,68.22,71,98,18.05,overcast clouds,0.0,0
93,tuatapere,NZ,-46.1333,167.6833,51.4,69,46,12.97,scattered clouds,0.0,0
94,pisco,PE,-13.7,-76.2167,58.01,86,9,3.8,clear sky,0.0,0
95,pouebo,NC,-20.4,164.5667,78.57,77,65,13.8,broken clouds,0.0,0
96,coro,VE,11.4045,-69.6734,78.12,87,47,15.75,scattered clouds,0.0,0
97,genhe,CN,50.7833,121.5167,85.93,42,96,8.05,overcast clouds,0.0,0
98,codrington,AU,-38.2667,141.9667,59.27,56,82,10.87,broken clouds,0.0,0
99,north bend,US,43.4065,-124.2243,67.24,100,80,1.01,broken clouds,0.0,0
100,kodiak,US,57.79,-152.4072,56.7,84,94,3.94,overcast clouds,0.0,0
101,new norfolk,AU,-42.7826,147.0587,57.88,57,38,1.48,scattered clouds,0.0,0
102,san borja,BO,-14.8167,-66.85,73.92,65,100,2.42,overcast clouds,0.0,0
103,amga,RU,60.8953,131.9608,91.36,41,2,2.77,clear sky,0.0,0
104,saldanha,ZA,-33.0117,17.9442,55.18,82,0,9.53,clear sky,0.0,0
105,lake city,US,30.1897,-82.6393,80.78,76,68,2.33,moderate rain,3.87,0
106,sao filipe,CV,14.8961,-24.4956,73.72,80,9,5.75,clear sky,0.0,0
107,mianwali,PK,32.5741,71.5264,101.03,38,32,7.85,scattered clouds,0.0,0
108,nelson bay,AU,-32.7167,152.15,62.01,99,100,15.99,light rain,0.13,0
109,te anau,NZ,-45.4167,167.7167,48.83,73,84,8.79,broken clouds,0.0,0
110,lima,PE,-12.0432,-77.0282,60.91,85,100,10.36,overcast clouds,0.0,0
111,vaini,TO,-21.2,-175.2,72.86,71,100,25.34,overcast clouds,0.0,0
112,waddan,LY,29.1614,16.139,75.6,72,0,5.97,clear sky,0.0,0
113,ugoofaaru,MV,5.6667,73.0,83.26,78,100,14.88,overcast clouds,0.0,0
114,sawtell,AU,-30.3833,153.1,60.19,94,100,13.8,heavy intensity rain,5.01,0
115,dumas,US,35.8656,-101.9732,85.53,34,0,4.61,clear sky,0.0,0
116,lompoc,US,34.6391,-120.4579,69.78,85,100,23.0,overcast clouds,0.0,0
117,dingle,PH,10.9995,122.6711,83.37,77,81,6.2,light rain,0.49,0
118,bilma,NE,18.6853,12.9164,85.53,31,0,10.54,clear sky,0.0,0
119,gisborne,NZ,-38.6533,178.0042,56.8,75,100,10.2,light rain,0.12,0
120,pevek,RU,69.7008,170.3133,46.0,72,16,3.06,few clouds,0.0,0
121,dromolaxia,CY,34.8761,33.586,81.99,78,0,3.44,clear sky,0.0,0
122,kuusamo,FI,65.9667,29.1833,62.64,77,21,3.44,few clouds,0.0,0
123,takoradi,GH,4.8845,-1.7554,74.35,91,87,6.22,light rain,0.81,0
124,seddon,AU,-37.8068,144.8916,60.67,74,40,12.66,scattered clouds,0.0,0
125,kattivakkam,IN,13.2167,80.3167,86.09,74,100,15.46,overcast clouds,0.0,0
126,vila velha,BR,-20.3297,-40.2925,69.75,95,75,2.3,broken clouds,0.0,0
127,khatanga,RU,71.9667,102.5,51.96,49,100,2.15,overcast clouds,0.0,0
128,barrow,US,71.2906,-156.7887,39.22,87,100,8.05,fog,0.0,0
129,kimbe,PG,-5.5502,150.1429,86.7,69,100,3.76,light rain,0.61,0
130,saint george,US,37.1041,-113.5841,83.66,15,0,9.8,clear sky,0.0,0
131,sakakah,SA,29.9697,40.2064,80.76,34,0,11.07,clear sky,0.0,0
132,hamilton,US,39.1834,-84.5333,81.21,63,62,1.99,broken clouds,0.0,0
133,norman wells,CA,65.282,-126.8329,80.56,30,9,13.8,clear sky,0.0,0
134,palmer,US,42.1584,-72.3287,68.22,73,99,0.58,overcast clouds,0.0,0
135,farafangana,MG,-22.8167,47.8333,67.59,87,95,4.16,light rain,0.14,0
136,torbay,CA,47.6666,-52.7314,57.58,76,0,5.99,clear sky,0.0,0
137,lebu,CL,-37.6167,-73.65,50.23,84,100,20.38,moderate rain,1.78,0
138,nome,US,64.5011,-165.4064,50.16,76,100,6.91,overcast clouds,0.0,0
139,bull savanna,JM,17.8868,-77.5902,76.17,82,30,10.18,scattered clouds,0.0,0
140,poum,NC,-20.2333,164.0167,77.45,84,69,24.87,broken clouds,0.0,0
141,provideniya,RU,64.3833,-173.3,48.36,87,100,11.18,overcast clouds,0.0,0
142,san jeronimo,PE,-11.9472,-75.2829,46.54,75,68,0.94,broken clouds,0.0,0
143,los llanos de aridane,ES,28.6585,-17.9182,65.95,79,75,13.8,broken clouds,0.0,0
144,meulaboh,ID,4.1363,96.1285,77.09,83,100,6.82,overcast clouds,0.0,0
145,ericeira,PT,38.9627,-9.4156,65.35,97,25,6.71,scattered clouds,0.0,0
146,piacabucu,BR,-10.4056,-36.4344,73.85,85,95,12.21,overcast clouds,0.0,0
147,cabo san lucas,MX,22.8909,-109.9124,90.7,64,1,11.86,clear sky,0.0,0
148,angoche,MZ,-16.2325,39.9086,69.67,76,0,7.58,clear sky,0.0,0
149,victoria,HK,22.2855,114.1577,86.38,82,100,13.0,moderate rain,1.5,0
150,atuona,PF,-9.8,-139.0333,78.03,72,6,23.55,clear sky,0.0,0
151,hofn,IS,64.2539,-15.2082,51.12,66,9,8.97,clear sky,0.0,0
152,beshpagir,RU,45.0217,42.3808,67.42,54,33,5.57,scattered clouds,0.0,0
153,souillac,MU,-20.5167,57.5167,70.23,73,93,16.37,overcast clouds,0.0,0
154,bredasdorp,ZA,-34.5322,20.0403,46.6,89,0,2.21,clear sky,0.0,0
155,abadiania,BR,-16.2042,-48.7069,53.87,52,2,3.15,clear sky,0.0,0
156,khowai,IN,24.1,91.6333,82.18,72,88,2.21,overcast clouds,0.0,0
157,jerantut,MY,3.936,102.3626,81.25,78,93,1.88,overcast clouds,0.0,0
158,shingu,JP,33.7333,135.9833,76.26,96,100,5.68,moderate rain,1.94,0
159,chernihiv,UA,51.0,32.0,65.66,71,0,2.57,clear sky,0.0,0
160,narsaq,GL,60.9167,-46.05,48.42,89,100,6.46,overcast clouds,0.0,0
161,lewistown,US,40.5992,-77.5714,72.34,97,0,0.0,clear sky,0.0,0
162,baglung,NP,28.2719,83.5898,79.34,85,66,3.11,broken clouds,0.0,0
163,lata,PT,40.1629,-8.3327,63.81,93,0,1.05,clear sky,0.0,0
164,mackenzie,CA,55.2999,-123.1698,73.62,33,40,9.22,scattered clouds,0.0,0
165,carnarvon,AU,-24.8667,113.6333,67.69,26,35,8.12,scattered clouds,0.0,0
166,orange cove,US,36.6244,-119.3137,85.93,27,0,4.94,clear sky,0.0,0
167,ahipara,NZ,-35.1667,173.1667,58.8,96,100,13.35,light rain,0.4,0
168,kaitangata,NZ,-46.2817,169.8464,53.33,59,13,15.68,few clouds,0.0,0
169,simpang,ID,-1.2667,104.0833,83.37,81,97,2.01,overcast clouds,0.0,0
170,turukhansk,RU,65.8167,87.9833,58.44,50,100,9.44,overcast clouds,0.0,0
171,black river,JM,18.0264,-77.8487,79.0,79,20,5.35,few clouds,0.0,0
172,bluff,NZ,-46.6,168.3333,54.81,71,82,35.9,broken clouds,0.0,0
173,asau,RO,46.4333,26.4,63.52,74,7,3.85,clear sky,0.0,0
174,tessaoua,NE,13.7574,7.9874,83.77,47,99,10.63,overcast clouds,0.0,0
175,san luis,AR,-33.295,-66.3356,46.78,38,0,13.4,clear sky,0.0,0
176,longyearbyen,SJ,78.2186,15.6401,40.84,100,75,8.05,light intensity drizzle rain,0.0,0
177,annau,TM,37.8876,58.516,74.93,34,0,9.13,clear sky,0.0,0
178,maralal,KE,1.0968,36.698,53.4,82,59,2.13,broken clouds,0.0,0
179,san francisco del mar,MX,16.2333,-94.65,81.05,80,85,16.67,overcast clouds,0.0,0
180,egvekinot,RU,66.3167,-179.1667,46.51,75,94,5.53,overcast clouds,0.0,0
181,bantry,IE,51.6833,-9.45,56.79,91,84,4.94,broken clouds,0.0,0
182,haines junction,CA,60.7522,-137.5108,60.17,90,68,11.12,moderate rain,3.01,0
183,quesnel,CA,52.9999,-122.5029,68.9,63,67,2.89,broken clouds,0.0,0
184,de aar,ZA,-30.6497,24.0123,51.12,54,92,9.37,overcast clouds,0.0,0
185,copala,MX,16.65,-98.9833,77.38,89,100,8.34,overcast clouds,0.0,0
186,tamandare,BR,-8.7597,-35.1047,74.37,85,19,10.98,few clouds,0.0,0
187,fairbanks,US,64.8378,-147.7164,83.61,43,75,6.91,smoke,0.0,0
188,vestmannaeyjar,IS,63.4427,-20.2734,49.14,79,48,6.49,scattered clouds,0.0,0
189,carmarthen,GB,51.8555,-4.3054,58.89,89,49,5.39,scattered clouds,0.0,0
190,nybro,SE,56.7446,15.9071,58.05,93,39,7.56,scattered clouds,0.0,0
191,dudinka,RU,69.4058,86.1778,56.62,42,0,10.09,clear sky,0.0,0
192,sitka,US,57.0531,-135.33,68.74,66,5,4.65,clear sky,0.0,0
193,lagoa,PT,39.05,-27.9833,63.34,72,100,12.28,overcast clouds,0.0,0
194,san francisco,US,37.7749,-122.4194,73.99,86,64,13.0,broken clouds,0.0,0
195,puerto ayora,EC,-0.7393,-90.3518,71.55,89,54,8.01,broken clouds,0.0,0
196,nijar,ES,36.9665,-2.206,72.64,78,0,5.75,clear sky,0.0,0
197,talnakh,RU,69.4865,88.3972,56.21,45,0,15.52,clear sky,0.0,0
198,nikolskoye,RU,59.7035,30.7861,63.88,92,96,3.69,overcast clouds,0.0,0
199,hillsborough,US,37.5741,-122.3794,73.94,80,75,9.22,broken clouds,0.0,0
200,leningradskiy,RU,69.3833,178.4167,50.0,67,35,7.45,scattered clouds,0.0,0
201,sibu,MY,2.3,111.8167,89.51,58,90,3.15,overcast clouds,0.0,0
202,katsuura,JP,35.1333,140.3,75.97,85,100,19.75,moderate rain,3.87,0
203,jalali,IN,27.8667,78.2667,95.43,46,14,10.76,few clouds,0.0,0
204,ulaangom,MN,49.9811,92.0667,70.16,29,89,3.58,overcast clouds,0.0,0
205,nouadhibou,MR,20.931,-17.0347,68.49,84,32,20.76,scattered clouds,0.0,0
206,mount gambier,AU,-37.8333,140.7667,58.84,54,9,8.41,clear sky,0.0,0
207,bathsheba,BB,13.2167,-59.5167,81.05,89,14,15.79,few clouds,0.0,0
208,dunedin,NZ,-45.8742,170.5036,54.0,59,3,5.59,clear sky,0.0,0
209,alugan,PH,12.2188,125.4808,85.89,63,96,4.74,overcast clouds,0.0,0
210,hirara,JP,24.8,125.2833,83.82,79,45,18.16,scattered clouds,0.0,0
211,cayenne,GF,4.9333,-52.3333,80.1,1,0,2.3,clear sky,0.0,0
212,pombas,CV,17.1503,-25.0201,71.38,80,61,11.59,broken clouds,0.0,0
213,bengkulu,ID,-3.8004,102.2655,83.43,68,80,3.69,light rain,0.15,0
214,nizhnevartovsk,RU,60.9344,76.5531,60.82,67,0,11.18,clear sky,0.0,0
215,kota tinggi,MY,1.7381,103.8999,87.8,66,98,3.87,overcast clouds,0.0,0
216,zheleznodorozhnyy,RU,55.7503,38.0042,68.61,67,1,5.55,clear sky,0.0,0
217,comodoro rivadavia,AR,-45.8667,-67.5,42.66,52,0,8.05,clear sky,0.0,0
218,alnashi,RU,56.1874,52.4792,51.35,74,99,9.98,overcast clouds,0.0,0
219,tynset,NO,62.2759,10.7824,47.82,94,100,4.25,light rain,0.18,0
220,lazaro cardenas,MX,17.9583,-102.2,77.63,90,100,0.36,overcast clouds,0.0,0
221,tasiilaq,GL,65.6145,-37.6368,39.36,84,100,5.88,overcast clouds,0.0,0
222,avarua,CK,-21.2078,-159.775,73.45,88,100,3.44,light rain,0.0,0
223,buchanan,LR,5.8808,-10.0467,75.88,83,97,5.37,overcast clouds,0.0,0
224,lavrentiya,RU,65.5833,-171.0,49.71,77,95,9.37,overcast clouds,0.0,0
225,ambulu,ID,-8.345,113.6058,84.74,71,94,4.18,overcast clouds,0.0,0
226,belmonte,BR,-15.8631,-38.8828,71.6,84,9,8.3,clear sky,0.0,0
227,skala,PL,50.2305,19.8536,64.51,82,20,1.14,light rain,0.51,0
228,luena,AO,-11.7833,19.9167,48.54,70,4,3.29,clear sky,0.0,0
229,bosaso,SO,11.2842,49.1816,87.19,43,100,21.12,overcast clouds,0.0,0
230,mbeya,TZ,-8.9,33.45,48.9,92,22,5.35,few clouds,0.0,0
231,kamalapuram,IN,14.5833,78.65,85.69,59,97,18.21,overcast clouds,0.0,0
232,borba,BR,-4.3878,-59.5939,74.8,84,19,2.44,few clouds,0.0,0
233,byron bay,AU,-28.65,153.6167,52.95,95,100,5.93,light rain,0.65,0
234,alofi,NU,-19.0595,-169.9187,75.16,75,99,25.93,overcast clouds,0.0,0
235,arlit,NE,18.7369,7.3853,88.23,13,72,7.72,broken clouds,0.0,0
236,ponta do sol,PT,32.6667,-17.1,68.63,69,39,6.02,scattered clouds,0.0,0
237,camacupa,AO,-12.0167,17.4833,50.99,54,0,3.29,clear sky,0.0,0
238,kemijarvi,FI,66.7131,27.4306,64.44,62,41,5.35,scattered clouds,0.0,0
239,vanimo,PG,-2.6741,141.3028,84.18,74,73,4.18,broken clouds,0.0,0
240,talara,PE,-4.5772,-81.2719,63.9,86,64,16.89,broken clouds,0.0,0
241,vyartsilya,RU,62.1764,30.693,63.61,100,61,3.27,broken clouds,0.0,0
242,kaeo,NZ,-35.1,173.7833,61.32,96,100,12.86,light rain,0.61,0
243,luau,AO,-10.7073,22.2247,55.47,52,9,4.16,clear sky,0.0,0
244,yanliang,CN,34.6592,109.2292,89.44,41,56,2.42,broken clouds,0.0,0
245,saint-pierre,RE,-21.3393,55.4781,65.91,72,0,5.75,clear sky,0.0,0
246,manggar,ID,-2.8833,108.2667,84.52,74,95,6.4,overcast clouds,0.0,0
247,tocopilla,CL,-22.092,-70.1979,62.65,68,100,6.46,overcast clouds,0.0,0
248,kruisfontein,ZA,-34.0033,24.7314,50.83,69,11,4.32,few clouds,0.0,0
249,xinzhi,CN,36.4989,111.7047,90.1,46,0,1.74,clear sky,0.0,0
250,baltoji voke,LT,54.6,25.2,63.19,82,2,5.75,fog,0.0,0
251,batemans bay,AU,-35.7167,150.1833,55.09,63,100,12.06,overcast clouds,0.0,0
252,bor,RU,56.3567,44.0669,57.13,67,60,3.62,broken clouds,0.0,0
253,peleduy,RU,59.6289,112.7406,57.2,96,100,9.62,moderate rain,2.09,0
254,aranos,NA,-24.1333,19.1167,54.73,43,1,14.99,clear sky,0.0,0
255,georgetown,MY,5.4112,100.3354,84.13,84,40,5.01,scattered clouds,0.0,0
256,sistranda,NO,63.7256,8.834,53.56,76,100,17.83,overcast clouds,0.0,0
257,mandan,US,46.8267,-100.8896,78.78,78,40,4.61,scattered clouds,0.0,0
258,clyde river,CA,70.4692,-68.5914,34.92,87,81,8.03,broken clouds,0.0,0
259,parsabad,IR,39.6482,47.9174,70.7,43,0,2.15,clear sky,0.0,0
260,kupang,ID,-10.1667,123.5833,80.29,58,100,15.59,overcast clouds,0.0,0
261,vila franca do campo,PT,37.7167,-25.4333,67.19,78,93,5.01,overcast clouds,0.0,0
262,jamestown,US,42.097,-79.2353,74.71,75,96,4.97,overcast clouds,0.0,0
263,maceio,BR,-9.6658,-35.7353,74.64,78,20,5.75,few clouds,0.0,0
264,qaanaaq,GL,77.484,-69.3632,41.56,72,3,1.72,clear sky,0.0,0
265,cap malheureux,MU,-19.9842,57.6142,68.47,74,82,5.99,broken clouds,0.0,0
266,zhigansk,RU,66.7697,123.3711,58.75,54,97,15.28,overcast clouds,0.0,0
267,kota belud,MY,6.351,116.4305,83.61,70,99,5.14,overcast clouds,0.0,0
268,fort nelson,CA,58.8053,-122.7002,71.19,49,75,6.91,broken clouds,0.0,0
269,hambantota,LK,6.1241,81.1185,80.94,83,40,9.22,scattered clouds,0.0,0
270,sola,VU,-13.8833,167.55,80.17,81,50,20.45,light rain,0.33,0
271,mount abu,IN,24.6,72.7,75.02,71,81,0.83,broken clouds,0.0,0
272,arraial do cabo,BR,-22.9661,-42.0278,70.2,90,0,24.63,clear sky,0.0,0
273,bethel,US,41.3712,-73.414,71.96,73,0,3.44,clear sky,0.0,0
274,iqaluit,CA,63.7506,-68.5145,47.93,70,100,6.91,light rain,0.0,0
275,tabuk,PH,17.4189,121.4443,87.17,65,94,2.95,overcast clouds,0.0,0
276,yermakovskoye,RU,53.2831,92.4003,72.61,41,3,4.9,clear sky,0.0,0
277,touros,BR,-5.1989,-35.4608,73.54,93,28,12.93,moderate rain,2.3,0
278,galveston,US,29.3669,-94.9669,84.99,86,88,1.99,overcast clouds,0.0,0
279,aberdeen,GB,57.1437,-2.0981,52.48,80,33,6.91,scattered clouds,0.0,0
280,west bay,KY,19.3667,-81.4167,82.99,85,40,6.91,scattered clouds,0.0,0
281,burns lake,CA,54.2331,-125.7533,69.33,49,69,4.79,broken clouds,0.0,0
282,bairiki,KI,1.3292,172.9752,86.0,70,40,12.66,scattered clouds,0.0,0
283,mata grande,BR,-9.1175,-37.7322,63.32,97,94,7.27,overcast clouds,0.0,0
284,bubaque,GW,11.2833,-15.8333,79.75,80,83,11.61,light rain,0.98,0
285,puerto escondido,MX,15.85,-97.0667,81.1,87,100,8.81,overcast clouds,0.0,0
286,aklavik,CA,68.2191,-135.0107,70.54,64,37,8.9,moderate rain,1.42,0
287,coquimbo,CL,-29.9533,-71.3436,51.53,71,0,5.75,clear sky,0.0,0
288,rocha,UY,-34.4833,-54.3333,53.42,98,69,7.23,broken clouds,0.0,0
289,krasnoselkup,RU,65.7,82.4667,57.56,45,1,7.25,clear sky,0.0,0
290,beba,CU,22.4437,-79.7253,73.67,92,54,4.76,broken clouds,0.0,0
291,nouakchott,MR,18.0858,-15.9785,75.13,80,20,9.4,few clouds,0.0,0
292,mareeba,AU,-17.0,145.4333,62.44,96,99,1.97,overcast clouds,0.0,0
293,becerril,CO,9.7041,-73.2793,76.73,86,100,4.07,overcast clouds,0.0,0
294,asyut,EG,27.181,31.1837,83.61,29,0,5.14,clear sky,0.0,0
295,flinders,AU,-34.5833,150.8552,57.18,89,100,3.0,light rain,0.11,0
296,ballina,AU,-28.8667,153.5667,53.02,99,100,5.37,light rain,0.17,0
297,moron,AR,-34.6534,-58.6198,53.35,94,28,5.46,scattered clouds,0.0,0
298,paamiut,GL,61.994,-49.6678,42.48,91,100,7.16,overcast clouds,0.0,0
299,boa vista,BR,2.8197,-60.6733,78.78,83,40,5.75,scattered clouds,0.0,0
300,washington,US,47.5001,-120.5015,70.2,49,74,2.82,broken clouds,0.0,0
301,bonito,BR,-21.1211,-56.4819,69.64,52,81,3.71,broken clouds,0.0,0
302,hovd,MN,48.0056,91.6419,66.25,26,100,3.29,overcast clouds,0.0,0
303,baisha,CN,26.5222,110.9311,86.27,76,56,1.59,broken clouds,0.0,0
304,valparaiso,CL,-33.0393,-71.6273,53.47,78,0,10.56,clear sky,0.0,0
305,axim,GH,4.8699,-2.2405,74.55,91,88,6.87,moderate rain,1.37,0
306,kirksville,US,40.1948,-92.5833,84.06,78,0,6.91,clear sky,0.0,0
307,ust-ishim,RU,57.6935,71.1665,52.54,84,100,11.9,overcast clouds,0.0,0
308,atyrau,KZ,47.1167,51.8833,62.62,82,75,6.71,broken clouds,0.0,0
309,la libertad,EC,-2.2333,-80.9,68.74,81,100,9.33,overcast clouds,0.0,0
310,acajutla,SV,13.5928,-89.8275,79.32,85,100,8.81,overcast clouds,0.0,0
311,beloha,MG,-25.1667,45.05,59.18,80,0,5.14,clear sky,0.0,0
312,sisimiut,GL,66.9395,-53.6735,44.94,92,100,7.38,overcast clouds,0.0,0
313,owerri,NG,5.4833,7.0304,71.06,98,94,0.36,overcast clouds,0.0,0
314,faanui,PF,-16.4833,-151.75,79.34,72,37,8.21,scattered clouds,0.0,0
315,atasu,KZ,48.6814,71.6433,62.11,58,48,23.4,scattered clouds,0.0,0
316,xining,CN,36.6167,101.7667,66.27,52,0,2.55,clear sky,0.0,0
317,guanica,PR,17.9716,-66.908,79.92,89,98,2.89,overcast clouds,0.0,0
318,manacapuru,BR,-3.2997,-60.6206,74.43,93,61,2.95,broken clouds,0.0,0
319,gornyy,RU,55.1153,83.9059,65.75,68,98,9.28,overcast clouds,0.0,0
320,san patricio,US,28.017,-97.5169,85.89,79,0,14.25,clear sky,0.0,0
321,rio gallegos,AR,-51.6226,-69.2181,32.16,80,100,7.47,overcast clouds,0.0,0
322,carndonagh,IE,55.25,-7.2667,52.21,94,90,8.3,overcast clouds,0.0,0
323,barra do corda,BR,-5.5,-45.25,78.35,57,100,3.11,overcast clouds,0.0,0
324,kahului,US,20.8947,-156.47,80.62,73,40,25.32,scattered clouds,0.0,0
325,pangnirtung,CA,66.1451,-65.7125,51.73,58,100,1.83,overcast clouds,0.0,0
326,jalu,LY,29.0331,21.5482,76.91,34,0,7.02,clear sky,0.0,0
327,arenal,CO,8.4593,-73.9433,76.28,93,100,2.04,overcast clouds,0.0,0
328,hay river,CA,60.8156,-115.7999,58.05,54,6,9.75,clear sky,0.0,0
329,masallatah,LY,32.6167,14.0,74.91,66,0,4.18,clear sky,0.0,0
330,puruaran,MX,19.1,-101.5333,67.96,96,100,5.21,overcast clouds,0.0,0
331,pemba,MZ,-12.974,40.5178,69.4,83,32,13.58,light rain,0.15,0
332,san cristobal,VE,7.7669,-72.225,68.18,92,60,2.77,broken clouds,0.0,0
333,puerto baquerizo moreno,EC,-0.9,-89.6,70.39,79,61,12.17,broken clouds,0.0,0
334,camacha,PT,33.0833,-16.3333,63.82,72,75,9.22,broken clouds,0.0,0
335,novo aripuana,BR,-5.1206,-60.3797,74.3,86,12,2.73,few clouds,0.0,0
336,labuhan,ID,-6.8844,112.2051,85.5,71,60,5.91,broken clouds,0.0,0
337,richards bay,ZA,-28.783,32.0377,60.6,92,15,4.16,few clouds,0.0,0
338,mawlamyine,MM,16.4914,97.6256,81.3,85,99,10.56,overcast clouds,0.0,0
339,xichang,CN,27.8964,102.2634,76.86,73,52,1.92,broken clouds,0.0,0
340,lake havasu city,US,34.4839,-114.3224,100.4,14,0,10.36,clear sky,0.0,0
341,pokhara,NP,28.2333,83.9833,80.76,82,43,3.85,scattered clouds,0.0,0
342,mindelo,CV,16.8901,-24.9804,72.95,78,20,18.41,few clouds,0.0,0
343,bay roberts,CA,47.5999,-53.2648,58.75,83,0,7.0,clear sky,0.0,0
344,logrono,ES,42.4667,-2.45,60.44,77,0,9.22,clear sky,0.0,0
345,timmins,CA,48.4669,-81.3331,61.79,65,100,3.98,overcast clouds,0.0,0
346,diamantino,BR,-14.4086,-56.4461,69.08,45,69,6.22,broken clouds,0.0,0
347,kaihua,CN,23.3687,104.28,74.28,84,96,4.25,overcast clouds,0.0,0
348,inyonga,TZ,-6.7167,32.0667,54.21,68,32,4.65,scattered clouds,0.0,0
349,cacule,BR,-14.5033,-42.2222,65.97,76,80,7.54,broken clouds,0.0,0
350,leonding,AT,48.2799,14.2547,64.56,91,100,7.0,heavy intensity rain,4.86,0
351,antofagasta,CL,-23.65,-70.4,59.41,73,100,7.52,overcast clouds,0.0,0
352,almeirim,BR,-1.5233,-52.5817,75.42,87,100,3.24,overcast clouds,0.0,0
353,goderich,CA,43.7501,-81.7165,75.52,60,100,5.75,overcast clouds,0.0,0
354,grindavik,IS,63.8424,-22.4338,46.87,93,100,5.75,overcast clouds,0.0,0
355,aksehir,TR,38.3575,31.4164,57.85,55,0,4.23,clear sky,0.0,0
356,hasaki,JP,35.7333,140.8333,90.28,71,100,21.32,overcast clouds,0.0,0
357,malinovskiy,RU,61.1953,62.8397,54.93,52,100,3.69,overcast clouds,0.0,0
358,san policarpo,PH,12.1791,125.5072,85.32,64,92,4.9,overcast clouds,0.0,0
359,seoul,KR,37.5683,126.9778,87.19,70,100,1.99,overcast clouds,0.0,0
360,cortez,US,37.3489,-108.5859,76.03,41,0,8.05,clear sky,0.0,0
361,namatanai,PG,-3.6667,152.4333,85.12,69,100,9.19,light rain,0.16,0
362,patea,NZ,-39.7583,174.4833,51.06,89,100,11.41,light rain,0.24,0
363,moncton,CA,46.1159,-64.8019,57.33,53,33,7.76,scattered clouds,0.0,0
364,quatre cocos,MU,-20.2078,57.7625,68.09,70,97,17.65,overcast clouds,0.0,0
365,bukachacha,RU,52.9833,116.9167,67.24,97,99,3.4,light rain,0.75,0
366,shimoda,JP,34.6667,138.95,77.11,94,100,11.27,light rain,0.29,0
367,peniche,PT,39.3558,-9.3811,64.29,94,14,5.26,few clouds,0.0,0
368,svetlogorsk,BY,52.6333,29.7333,66.25,83,44,4.05,scattered clouds,0.0,0
369,aykhal,RU,66.0,111.5,63.18,59,60,8.52,broken clouds,0.0,0
370,college,US,64.8569,-147.8028,83.59,43,75,6.91,smoke,0.0,0
371,avera,US,33.194,-82.5271,77.56,76,79,6.38,broken clouds,0.0,0
372,siuna,NI,13.7332,-84.7773,73.44,98,100,3.67,overcast clouds,0.0,0
373,livingstonia,MW,-10.606,34.1063,54.73,73,0,2.71,clear sky,0.0,0
374,ketchikan,US,55.3422,-131.6461,64.87,77,0,17.27,clear sky,0.0,0
375,kawalu,ID,-7.3817,108.2082,85.98,55,39,2.91,scattered clouds,0.0,0
376,adra,ES,36.7496,-3.0206,87.39,48,96,0.51,overcast clouds,0.0,0
377,yanam,IN,16.7333,82.2167,77.16,93,100,5.79,moderate rain,2.37,0
378,pemangkat,ID,1.1667,108.9667,83.66,75,100,0.63,overcast clouds,0.0,0
379,aguimes,ES,27.9054,-15.4461,66.83,78,75,26.46,broken clouds,0.0,0
380,tadine,NC,-21.55,167.8833,77.36,70,100,14.34,overcast clouds,0.0,0
381,ihosy,MG,-22.4,46.1167,56.25,91,60,5.28,broken clouds,0.0,0
382,magistralnyy,RU,56.1725,107.4458,66.2,59,98,8.97,overcast clouds,0.0,0
383,tobermory,CA,45.2501,-81.6665,59.11,91,100,9.86,light rain,0.11,0
384,acapulco,MX,16.8634,-99.8901,78.46,86,100,11.39,light rain,0.55,0
385,algarrobo,CO,10.1869,-74.5753,76.12,91,100,3.2,overcast clouds,0.0,0
386,oranjemund,NA,-28.55,16.4333,52.05,90,0,2.17,clear sky,0.0,0
387,belaya gora,RU,68.5333,146.4167,80.92,48,100,10.49,light rain,0.11,0
388,virginia beach,US,36.8529,-75.978,78.03,78,61,1.01,broken clouds,0.0,0
389,fort saint james,CA,54.4333,-124.25,66.76,51,36,8.95,scattered clouds,0.0,0
390,kem,RU,64.9555,34.5793,61.0,83,42,6.06,scattered clouds,0.0,0
391,gimli,CA,50.6336,-96.9907,60.19,94,99,9.44,overcast clouds,0.0,0
392,kuryk,KZ,43.2,51.65,71.74,66,25,12.82,scattered clouds,0.0,0
393,nanortalik,GL,60.1432,-45.2371,44.44,89,72,7.9,broken clouds,0.0,0
394,cidreira,BR,-30.1811,-50.2056,63.72,92,9,2.62,clear sky,0.0,0
395,tawang,IN,27.5833,91.8667,69.31,66,38,4.88,scattered clouds,0.0,0
396,honiara,SB,-9.4333,159.95,87.4,62,62,7.2,broken clouds,0.0,0
397,hunterville,NZ,-39.9333,175.5667,51.55,91,100,4.88,heavy intensity rain,5.62,0
398,andenes,NO,69.3143,16.1194,58.93,94,40,4.61,scattered clouds,0.0,0
399,tateyama,JP,34.9833,139.8667,74.7,89,100,19.35,moderate rain,2.51,0
400,ginda,IN,30.6945,78.4932,74.37,80,91,2.77,overcast clouds,0.0,0
401,gat,IL,31.61,34.7642,76.41,79,0,2.84,clear sky,0.0,0
402,kenai,US,60.5544,-151.2583,66.02,83,99,9.15,overcast clouds,0.0,0
403,airai,TL,-8.9266,125.4092,62.49,81,99,3.2,overcast clouds,0.0,0
404,acarau,BR,-2.8856,-40.12,75.33,86,44,9.73,scattered clouds,0.0,0
405,gamba,GA,-2.65,10.0,68.25,91,12,4.7,few clouds,0.0,0
406,petropavlovsk-kamchatskiy,RU,53.0452,158.6483,57.79,100,75,8.95,light rain,0.2,0
407,severnyy,RU,50.677,36.5532,68.04,73,0,6.71,clear sky,0.0,0
408,elko,US,41.0002,-115.5012,78.82,22,1,8.28,clear sky,0.0,0
409,altay,CN,47.8667,88.1167,70.54,35,100,2.21,light rain,0.17,0
410,gbarnga,LR,6.9956,-9.4722,67.89,99,98,0.81,overcast clouds,0.0,0
411,victor harbor,AU,-35.5667,138.6167,55.99,84,18,8.7,few clouds,0.0,0
412,corinto,GR,37.9407,22.9573,80.89,36,0,4.79,clear sky,0.0,0
413,tottori,JP,35.5,134.2333,79.92,87,99,3.96,overcast clouds,0.0,0
414,hope,US,33.6671,-93.5916,89.65,65,18,5.06,few clouds,0.0,0
415,malindi,KE,-3.2175,40.1191,75.92,76,5,16.11,clear sky,0.0,0
416,port macquarie,AU,-31.4333,152.9167,56.89,79,100,1.99,light rain,0.29,0
417,inhambane,MZ,-23.865,35.3833,65.39,84,1,2.57,clear sky,0.0,0
418,venice,US,27.0998,-82.4543,85.98,87,20,6.91,few clouds,0.0,0
419,gwadar,PK,25.1216,62.3254,83.82,79,100,2.53,light rain,0.26,0
420,ribeira grande,PT,38.5167,-28.7,65.26,69,100,10.09,overcast clouds,0.0,0
421,berbera,SO,10.4396,45.0143,87.71,43,85,28.48,overcast clouds,0.0,0
422,qostanay,KZ,53.1667,63.5833,55.69,82,100,15.66,overcast clouds,0.0,0
423,canutama,BR,-6.5339,-64.3831,74.79,78,34,3.36,scattered clouds,0.0,0
424,darhan,MN,49.4867,105.9228,57.54,87,100,8.14,light rain,0.22,0
425,damietta,EG,31.4165,31.8133,77.49,74,0,8.37,clear sky,0.0,0
426,lasa,IT,46.6166,10.7002,54.36,87,85,5.3,overcast clouds,0.0,0
427,natal,BR,-5.795,-35.2094,74.05,100,100,6.91,light rain,0.2,0
428,mount isa,AU,-20.7333,139.5,62.37,45,0,13.8,clear sky,0.0,0
429,novobirilyussy,RU,56.9514,90.6661,70.02,54,5,6.11,clear sky,0.0,0
430,ngunguru,NZ,-35.6167,174.5,57.78,92,100,17.4,moderate rain,1.6,0
431,saint anthony,US,45.0205,-93.218,78.58,84,0,9.22,clear sky,0.0,0
432,salekhard,RU,66.53,66.6019,53.89,87,100,11.3,light rain,0.35,0
433,henties bay,NA,-22.116,14.2845,53.82,87,0,5.68,clear sky,0.0,0
434,sirjan,IR,29.452,55.6814,81.7,28,89,5.03,overcast clouds,0.0,0
435,shakawe,BW,-18.3667,21.85,55.98,55,38,3.96,scattered clouds,0.0,0
436,moguer,ES,37.2756,-6.8385,62.71,71,0,3.6,clear sky,0.0,0
437,vao,NC,-22.6667,167.4833,74.77,75,100,16.87,overcast clouds,0.0,0
438,ukiah,US,39.1502,-123.2078,69.87,82,100,2.64,overcast clouds,0.0,0
439,russell,US,32.3502,-85.1999,80.2,94,75,0.0,broken clouds,0.0,0
440,paris,FR,48.8534,2.3488,57.7,82,0,6.91,clear sky,0.0,0
441,hobyo,SO,5.3505,48.5268,75.58,83,10,24.72,clear sky,0.0,0
442,abu road,IN,24.4833,72.7833,85.15,72,94,1.14,overcast clouds,0.0,0
443,hervey bay,AU,-25.2986,152.8535,58.01,94,100,3.0,light rain,0.42,0
444,matara,LK,5.9485,80.5353,79.47,84,100,14.7,overcast clouds,0.0,0
445,ingham,US,42.6,-84.3833,78.98,66,100,8.05,overcast clouds,0.0,0
446,malakal,SS,9.5334,31.6605,72.61,86,86,1.05,overcast clouds,0.0,0
447,rodino,RU,52.5,80.25,74.28,39,99,14.94,light rain,0.13,0
448,broome,US,42.2506,-75.833,70.68,78,100,1.9,overcast clouds,0.0,0
449,roma,US,43.2128,-75.4557,68.86,80,75,0.0,broken clouds,0.0,0
450,whitehorse,CA,60.7161,-135.0538,86.02,22,40,3.44,thunderstorm,0.0,0
451,plast,RU,54.3691,60.8136,46.8,86,100,12.97,overcast clouds,0.0,0
452,yichun,CN,47.7,128.9,85.82,51,28,2.01,scattered clouds,0.0,0
453,alihe,CN,50.5667,123.7167,85.66,52,66,8.61,broken clouds,0.0,0
454,varnamo,SE,57.186,14.04,53.06,93,76,3.0,broken clouds,0.0,0
455,bandarbeyla,SO,9.4942,50.8122,79.41,63,45,30.87,scattered clouds,0.0,0
456,svolvaer,NO,68.2342,14.5683,61.5,75,83,10.09,broken clouds,0.0,0
457,pangoa,PE,-12.1167,-73.0,68.14,80,32,3.0,scattered clouds,0.0,0
458,sao joao da barra,BR,-21.6403,-41.0511,70.21,90,0,14.14,clear sky,0.0,0
459,nizhniy ingash,RU,56.2,96.53,73.42,42,6,6.35,clear sky,0.0,0
460,peterhead,GB,57.5058,-1.7981,52.2,81,89,16.31,overcast clouds,0.0,0
461,adrar,MR,20.5022,-10.0711,92.14,18,11,5.57,few clouds,0.0,0
462,mjolby,SE,58.326,15.1237,52.88,87,36,11.05,scattered clouds,0.0,0
463,tautira,PF,-17.7333,-149.15,77.85,79,47,14.5,light rain,0.24,0
464,hafizabad,PK,32.0679,73.6854,96.64,44,93,3.98,light rain,0.14,0
465,yarim,YE,14.298,44.3779,58.1,51,63,5.77,broken clouds,0.0,0
466,kununurra,AU,-15.7667,128.7333,69.78,24,9,19.57,clear sky,0.0,0
467,payakumbuh,ID,-0.2202,100.6308,79.05,71,99,0.98,overcast clouds,0.0,0
468,kochinda,IN,21.7333,84.35,81.61,77,87,4.47,overcast clouds,0.0,0
469,baringo,KE,0.4667,35.9667,69.22,72,100,3.94,overcast clouds,0.0,0
470,port lavaca,US,28.615,-96.6261,84.97,79,0,6.91,clear sky,0.0,0
471,gobo,JP,33.8833,135.15,78.03,91,100,12.55,moderate rain,3.07,0
472,tyazhinskiy,RU,56.116,88.524,69.06,60,16,12.28,few clouds,0.0,0
473,warrington,GB,53.3925,-2.5802,57.79,76,100,16.11,overcast clouds,0.0,0
474,barauna,BR,-5.08,-37.6167,72.18,88,24,8.9,few clouds,0.0,0
475,kieta,PG,-6.2167,155.6333,85.17,67,90,4.32,overcast clouds,0.0,0
476,harbour breton,CA,47.4833,-55.7983,54.18,84,0,15.1,clear sky,0.0,0
477,humaita,BR,-7.5061,-63.0208,76.95,67,8,2.8,clear sky,0.0,0
478,santa marta,CO,11.2408,-74.199,80.94,83,100,11.63,overcast clouds,0.0,0
479,omboue,GA,-1.5746,9.2618,70.29,85,17,6.67,few clouds,0.0,0
480,port hardy,CA,50.6996,-127.4199,56.7,90,100,1.57,overcast clouds,0.0,0
481,luanda,AO,-8.8368,13.2343,69.8,83,100,6.91,overcast clouds,0.0,0
482,morondava,MG,-20.2833,44.2833,62.76,71,0,7.36,clear sky,0.0,0
483,salalah,OM,17.0151,54.0924,77.7,92,100,8.72,overcast clouds,0.0,0
484,barranca,PE,-10.75,-77.7667,61.54,83,55,6.82,broken clouds,0.0,0
485,podor,MR,16.6527,-14.9587,85.91,51,63,10.98,broken clouds,0.0,0
486,lakes entrance,AU,-37.8811,147.981,55.17,59,100,4.41,overcast clouds,0.0,0
487,la orilla,MX,17.9833,-102.2333,77.14,91,100,0.4,overcast clouds,0.0,0
488,puerto colombia,CO,10.9878,-74.9547,82.49,88,100,13.11,overcast clouds,0.0,0
489,naranjos,MX,21.35,-97.6833,78.13,90,10,5.46,clear sky,0.0,0
490,bandundu,CD,-3.3167,17.3667,71.37,53,3,4.56,clear sky,0.0,0
491,margate,GB,51.3813,1.3862,60.69,66,69,4.0,broken clouds,0.0,0
492,constantine,DZ,36.365,6.6147,74.61,43,0,0.0,clear sky,0.0,0
493,plettenberg bay,ZA,-34.0527,23.3716,54.01,64,0,3.83,clear sky,0.0,0
494,tres arroyos,AR,-38.3739,-60.2798,40.1,34,0,6.24,clear sky,0.0,0
495,kochki,RU,54.3358,80.4806,63.57,70,100,10.0,overcast clouds,0.0,0
496,revda,RU,56.801,59.9303,49.24,68,84,8.12,broken clouds,0.0,0
497,tibati,CM,6.4667,12.6333,65.86,94,100,2.66,light rain,0.25,0
498,nagaoka,JP,37.45,138.85,89.65,70,98,5.19,overcast clouds,0.0,0
499,igarka,RU,67.4667,86.5833,59.27,44,1,14.79,clear sky,0.0,0
500,namibe,AO,-15.1961,12.1522,63.09,70,0,9.53,clear sky,0.0,0
501,daru,PG,-9.0763,143.2092,79.88,85,75,10.49,light rain,0.11,0
502,peebles,GB,55.6519,-3.1888,51.53,86,68,3.0,broken clouds,0.0,0
503,pachino,IT,36.7186,15.0907,79.92,56,0,4.9,clear sky,0.0,0
504,tual,ID,-5.6667,132.75,79.81,77,98,20.98,overcast clouds,0.0,0
505,baykit,RU,61.67,96.37,67.24,48,15,3.96,few clouds,0.0,0
506,zonguldak,TR,41.25,31.8333,53.94,84,0,3.29,clear sky,0.0,0
507,itaituba,BR,-4.2761,-55.9836,75.29,88,99,1.92,overcast clouds,0.0,0
508,noumea,NC,-22.2763,166.4572,84.18,99,100,6.71,overcast clouds,0.0,0
509,artyom,AZ,40.4723,50.333,78.94,54,0,15.35,clear sky,0.0,0
510,lufilufi,WS,-13.8745,-171.5986,80.42,74,12,11.79,light rain,0.72,0
511,husavik,IS,66.0449,-17.3389,42.53,90,95,3.89,overcast clouds,0.0,0
512,oriximina,BR,-1.7656,-55.8661,76.68,82,84,3.87,broken clouds,0.0,0
513,hokitika,NZ,-42.7167,170.9667,51.31,77,100,1.7,overcast clouds,0.0,0
514,shihezi,CN,44.3,86.0333,87.69,18,77,4.7,broken clouds,0.0,0
515,guangyuan,CN,32.442,105.823,90.88,41,59,6.35,broken clouds,0.0,0
516,neiafu,TO,-18.65,-173.9833,76.46,79,98,27.4,light rain,0.13,0
517,darnah,LY,32.767,22.6367,76.14,75,0,15.52,clear sky,0.0,0
518,borgarnes,IS,64.5383,-21.9206,48.81,79,82,0.56,broken clouds,0.0,0
519,trincomalee,LK,8.5711,81.2335,83.08,73,100,19.51,overcast clouds,0.0,0
520,ossora,RU,59.2353,163.0719,55.11,82,73,8.93,broken clouds,0.0,0
521,kjollefjord,NO,70.9457,27.3465,51.62,93,75,1.14,broken clouds,0.0,0
522,shenzhen,CN,22.5455,114.0683,87.08,89,100,11.25,moderate rain,1.73,0
523,pacific grove,US,36.6177,-121.9166,68.2,86,75,9.22,broken clouds,0.0,0
524,necochea,AR,-38.5473,-58.7368,43.16,55,0,6.8,clear sky,0.0,0
525,klimovo,RU,52.3805,32.1923,64.56,73,22,4.18,few clouds,0.0,0
526,mirik,IN,26.8945,88.1848,71.62,80,73,3.83,broken clouds,0.0,0
527,shiyan,CN,32.6475,110.7781,88.99,60,45,3.87,scattered clouds,0.0,0
528,huanuco,PE,-9.9329,-76.2415,55.76,92,5,0.72,clear sky,0.0,0
529,chapais,CA,49.7834,-74.8492,52.25,72,63,4.25,broken clouds,0.0,0
530,dubai,AE,25.2582,55.3047,90.41,69,44,7.83,scattered clouds,0.0,0
531,chulman,RU,56.8479,124.9104,81.97,45,31,13.27,scattered clouds,0.0,0
532,caravelas,BR,-17.7125,-39.2481,69.06,89,0,4.97,clear sky,0.0,0
533,mujiayingzi,CN,42.1167,118.7833,87.58,48,1,6.08,clear sky,0.0,0
534,waterloo,CA,43.4668,-80.5164,69.73,83,100,4.61,overcast clouds,0.0,0
535,muros,ES,42.7762,-9.0603,67.08,77,9,12.53,clear sky,0.0,0
536,ayagoz,KZ,47.9714,80.4392,65.26,71,100,17.05,overcast clouds,0.0,0
537,veraval,IN,20.9,70.3667,81.9,89,100,17.54,light rain,0.3,0
538,svetlaya,RU,46.5389,138.3297,62.6,85,91,8.55,overcast clouds,0.0,0
539,lalmohan,BD,22.3384,90.7419,84.83,79,55,17.67,broken clouds,0.0,0
540,japura,ID,-0.3167,102.35,82.47,77,98,1.43,overcast clouds,0.0,0
541,vestmanna,FO,62.1564,-7.1664,45.52,87,40,10.36,scattered clouds,0.0,0
542,nara,JP,34.6851,135.8049,79.92,95,100,2.04,light rain,0.9,0
543,shache,CN,38.4167,77.2406,90.25,16,0,9.82,clear sky,0.0,0
544,banjar,ID,-8.19,114.9675,86.85,68,45,2.08,scattered clouds,0.0,0
545,thinadhoo,MV,0.5333,72.9333,82.02,73,26,3.8,scattered clouds,0.0,0
546,kefamenanu,ID,-9.4467,124.4781,75.6,67,93,10.11,overcast clouds,0.0,0
547,semnan,IR,35.5729,53.3971,70.43,41,0,5.73,clear sky,0.0,0
548,inirida,CO,3.8653,-67.9239,72.7,98,45,2.8,scattered clouds,0.0,0
549,pandegelang,ID,-6.31,106.1058,84.52,62,50,3.56,scattered clouds,0.0,0
550,mitsamiouli,KM,-11.3847,43.2844,75.04,71,4,7.7,clear sky,0.0,0
551,tokur,RU,53.1333,132.9,85.78,38,94,2.59,overcast clouds,0.0,0
552,corn island,NI,12.1694,-83.0418,81.5,83,100,13.58,overcast clouds,0.0,0
553,methven,NZ,-43.6333,171.65,58.01,45,69,5.01,broken clouds,0.0,0
554,polyanka,UA,50.2584,27.6881,62.83,86,44,3.6,scattered clouds,0.0,0
555,kushiro,JP,42.975,144.3747,65.35,100,75,5.75,mist,0.0,0
556,alenquer,BR,-1.9417,-54.7383,74.16,91,64,3.36,broken clouds,0.0,0
557,anupgarh,IN,29.1911,73.2086,96.06,47,11,3.83,few clouds,0.0,0
558,chicaman,GT,15.4,-90.7667,59.97,97,99,1.25,overcast clouds,0.0,0
559,aurora,US,39.7294,-104.8319,80.38,38,75,3.44,broken clouds,0.0,0
560,oksovskiy,RU,62.6062,39.8984,66.06,67,40,5.08,scattered clouds,0.0,0
561,naklo nad notecia,PL,53.1421,17.6018,59.45,80,78,2.39,broken clouds,0.0,0
562,tiznit,MA,29.5833,-9.5,70.95,55,17,1.28,few clouds,0.0,0
563,torbat-e jam,IR,35.244,60.6225,69.96,35,0,21.72,clear sky,0.0,0
564,penzance,GB,50.1186,-5.5371,58.46,86,0,10.11,clear sky,0.0,0
565,ko samui,TH,9.5357,99.9357,82.9,73,100,22.19,overcast clouds,0.0,0
566,bria,CF,6.5423,21.9863,67.3,93,100,2.13,light rain,0.15,0
567,atar,MR,20.5169,-13.0499,91.31,22,3,5.1,clear sky,0.0,0
568,saryg-sep,RU,51.5,95.6,73.89,28,0,4.16,clear sky,0.0,0
569,rodrigues alves,BR,-7.738,-72.6509,74.21,77,31,1.1,scattered clouds,0.0,0
570,san antonio,US,29.4241,-98.4936,90.05,59,0,23.02,clear sky,0.0,0
571,ancud,CL,-41.8697,-73.8203,44.22,84,100,22.19,light rain,0.39,0
572,raga,SS,8.4596,25.678,66.9,97,51,3.15,broken clouds,0.0,0
573,suntar,RU,62.1444,117.6319,60.15,96,100,3.76,light rain,0.25,0
574,yuanping,CN,38.7153,112.7575,84.09,46,76,2.48,broken clouds,0.0,0
575,porto seguro,BR,-16.4497,-39.0647,75.72,73,75,9.22,broken clouds,0.0,0
576,ginir,ET,7.1333,40.7,53.58,84,51,4.56,broken clouds,0.0,0
577,houma,US,29.5958,-90.7195,82.0,88,0,0.0,clear sky,0.0,0
578,gazli,UZ,40.1333,63.45,77.25,29,0,5.97,clear sky,0.0,0
579,mayna,RU,54.1135,47.6231,54.14,81,33,7.96,scattered clouds,0.0,0
580,yenagoa,NG,4.9247,6.2642,72.81,96,99,2.08,overcast clouds,0.0,0
581,san rafael,AR,-34.6177,-68.3301,44.02,34,0,3.06,clear sky,0.0,0
582,tabou,CI,4.423,-7.3528,75.74,81,100,6.6,overcast clouds,0.0,0
583,kimberley,ZA,-28.7323,24.7623,50.72,53,0,12.77,clear sky,0.0,0
584,pedra azul,BR,-16.0053,-41.2972,59.72,97,62,3.18,broken clouds,0.0,0
585,ballitoville,ZA,-29.539,31.2144,60.24,86,0,5.44,clear sky,0.0,0
586,kyaikto,MM,17.3,97.0167,80.94,84,100,3.74,overcast clouds,0.0,0
587,goedereede,NL,51.8175,3.9806,62.01,82,14,5.03,few clouds,0.0,0
588,tabory,RU,58.5198,64.5495,50.97,63,100,8.77,overcast clouds,0.0,0
589,liepaja,LV,56.5419,21.0367,66.18,72,40,16.11,scattered clouds,0.0,0
590,turan,VN,16.0678,108.2208,96.78,44,0,5.75,clear sky,0.0,0
591,raudeberg,NO,61.9875,5.1352,50.67,82,100,14.54,light rain,0.56,0
592,christchurch,NZ,-43.5333,172.6333,58.48,72,77,5.75,broken clouds,0.0,0
593,north platte,US,41.1239,-100.7654,83.25,67,0,4.61,clear sky,0.0,0
594,pelotas,BR,-31.7719,-52.3425,61.86,99,86,1.01,light rain,0.65,0
595,ozernovskiy,RU,51.5,156.5167,51.51,90,92,3.89,overcast clouds,0.0,0
596,eyl,SO,7.9803,49.8164,78.31,62,35,29.42,scattered clouds,0.0,0
597,fortuna,US,40.5982,-124.1573,64.92,88,100,0.0,overcast clouds,0.0,0
598,mago,RU,53.2514,140.1822,88.2,42,10,4.32,clear sky,0.0,0
599,zyryanka,RU,65.75,150.85,83.59,34,57,18.1,broken clouds,0.0,0
600,kidal,ML,18.4411,1.4078,89.6,14,2,8.84,clear sky,0.0,0
601,kudahuvadhoo,MV,2.6708,72.8944,82.96,75,67,8.52,broken clouds,0.0,0
602,nanga eboko,CM,4.6833,12.3667,66.94,99,100,3.76,light rain,0.11,0
603,martapura,ID,-3.4167,114.85,86.09,70,20,4.61,few clouds,0.0,0
604,kentville,CA,45.0835,-64.4988,57.4,69,58,9.53,broken clouds,0.0,0
605,berlevag,NO,70.8578,29.0864,55.2,100,100,16.11,fog,0.0,0
606,kualakapuas,ID,-3.0091,114.3876,88.99,57,41,3.04,scattered clouds,0.0,0
607,camana,PE,-16.6228,-72.7111,60.71,86,99,6.93,overcast clouds,0.0,0
608,dong hoi,VN,17.4833,106.6,90.14,59,100,12.97,overcast clouds,0.0,0
609,tolga,DZ,34.7222,5.3785,91.04,23,48,6.2,scattered clouds,0.0,0
610,chitungwiza,ZW,-18.0127,31.0756,48.11,83,3,4.83,clear sky,0.0,0
611,crossville,US,35.949,-85.0269,75.83,95,0,0.0,clear sky,0.0,0
612,songea,TZ,-10.6833,35.65,52.23,79,21,1.83,few clouds,0.0,0
613,saint-francois,FR,46.4154,3.9054,56.64,100,0,0.0,clear sky,0.0,0
614,melfi,IT,40.9965,15.6514,68.49,57,0,6.22,clear sky,0.0,0
615,sheridan,US,44.8333,-106.9173,73.78,61,0,0.0,clear sky,0.0,0
616,vizinga,RU,61.0749,50.1031,60.46,55,61,4.45,broken clouds,0.0,0
617,salina cruz,MX,16.1667,-95.2,80.53,78,68,13.62,broken clouds,0.0,0
618,mumford,GH,5.2618,-0.759,74.35,90,90,7.18,light rain,0.41,0
619,ekhabi,RU,53.5102,142.9671,75.9,54,57,10.92,broken clouds,0.0,0
620,oum hadjer,TD,13.2954,19.6966,83.34,55,100,8.7,overcast clouds,0.0,0
621,praya,CV,14.9215,-23.5087,75.74,78,75,13.8,broken clouds,0.0,0
622,korla,CN,41.7597,86.1469,92.66,15,0,3.42,clear sky,0.0,0
623,vicksburg,US,32.3526,-90.8779,80.33,86,0,9.22,clear sky,0.0,0
624,zeya,RU,53.75,127.2667,89.46,39,0,5.88,clear sky,0.0,0
625,shenjiamen,CN,29.9576,122.298,81.28,86,100,24.45,overcast clouds,0.0,0
626,havoysund,NO,70.9963,24.6622,50.23,84,93,10.67,overcast clouds,0.0,0
627,ust-tsilma,RU,65.441,52.1498,70.77,53,11,6.6,light rain,0.11,0
628,biloela,AU,-24.4167,150.5,53.67,76,100,6.29,overcast clouds,0.0,0
629,praia,CV,14.9215,-23.5087,75.74,78,75,13.8,broken clouds,0.0,0
630,huarmey,PE,-10.0681,-78.1522,62.29,85,49,8.41,scattered clouds,0.0,0
631,borogontsy,RU,62.6683,131.1683,87.26,39,27,4.81,scattered clouds,0.0,0
632,katangli,RU,51.7102,143.2326,65.1,65,12,10.94,few clouds,0.0,0
633,troitskoye,RU,52.9821,84.6757,70.9,52,75,6.2,broken clouds,0.0,0
634,langfang,CN,39.5097,116.6947,93.34,49,7,3.53,clear sky,0.0,0
635,skibbereen,IE,51.55,-9.2667,57.11,95,41,7.45,scattered clouds,0.0,0
636,roald,NO,62.5833,6.1333,56.75,87,100,2.3,light rain,0.12,0
637,kihei,US,20.785,-156.4656,80.62,76,40,25.32,light rain,0.12,0
638,aksarka,RU,66.5606,67.7975,54.07,77,100,10.4,overcast clouds,0.0,0
639,flin flon,CA,54.7682,-101.865,58.86,54,94,5.37,overcast clouds,0.0,0
640,porto novo,BJ,6.4965,2.6036,74.53,92,100,7.54,moderate rain,1.08,0
641,itamaraca,BR,-7.7478,-34.8256,78.85,84,32,14.25,scattered clouds,0.0,0
642,eisenach,DE,50.9833,10.3167,56.68,77,2,1.83,clear sky,0.0,0
643,balabac,PH,7.9868,117.0645,81.93,75,100,3.4,overcast clouds,0.0,0
644,cabra,ES,37.4725,-4.4421,71.65,42,9,0.76,clear sky,0.0,0
645,mahina,PF,-17.5065,-149.489,74.97,88,75,16.11,light rain,0.13,0
646,puerto madero,MX,14.7208,-92.4215,75.4,100,100,5.75,overcast clouds,0.0,0
647,nemuro,JP,43.3236,145.575,54.41,97,100,8.61,overcast clouds,0.0,0
648,mirnyy,RU,62.5353,113.9611,69.24,49,100,4.0,overcast clouds,0.0,0
649,slave lake,CA,55.2834,-114.769,58.98,94,100,4.61,overcast clouds,0.0,0
650,hanko,FI,59.8333,22.95,61.14,82,60,17.47,broken clouds,0.0,0
651,marawi,PH,7.9986,124.2928,78.55,75,95,1.79,overcast clouds,0.0,0
652,paraiso,CR,9.8383,-83.8656,65.41,98,100,0.92,light rain,0.22,0
653,marzuq,YE,14.4,46.4667,78.31,40,89,2.55,overcast clouds,0.0,0
654,ikalamavony,MG,-21.15,46.5833,54.07,91,14,4.99,few clouds,0.0,0
655,litovko,RU,49.2361,135.1742,78.06,74,79,4.9,broken clouds,0.0,0
656,ippy,CF,6.2679,21.2247,68.34,94,100,1.19,overcast clouds,0.0,0
657,aquiraz,BR,-3.9014,-38.3911,77.09,89,33,8.66,scattered clouds,0.0,0
658,rincon,US,32.296,-81.2354,83.86,88,75,4.61,broken clouds,0.0,0
659,birjand,IR,32.8663,59.2211,70.0,32,51,8.12,broken clouds,0.0,0
660,sao felix do xingu,BR,-6.6447,-51.995,70.65,66,0,1.36,clear sky,0.0,0
661,clinton,US,42.587,-82.9199,82.72,62,100,1.99,overcast clouds,0.0,0
662,kiomboi,TZ,-4.2667,34.3667,53.74,75,5,7.05,clear sky,0.0,0
663,conceicao do araguaia,BR,-8.2578,-49.2647,72.54,50,1,3.13,clear sky,0.0,0
664,ust-nera,RU,64.5667,143.2,85.08,37,97,12.41,overcast clouds,0.0,0
665,buala,SB,-8.145,159.5921,85.1,70,92,9.53,overcast clouds,0.0,0
666,coffs harbour,AU,-30.3,153.1333,60.13,94,75,12.66,light rain,0.62,0
667,high level,CA,58.5169,-117.136,67.26,47,0,3.09,clear sky,0.0,0
668,terekli-mekteb,RU,44.1671,45.8698,73.36,41,13,15.14,few clouds,0.0,0
669,santiago de cao,PE,-7.9589,-79.2392,60.93,88,12,6.91,mist,0.0,0
670,rock springs,US,41.5875,-109.2029,77.05,26,0,12.66,clear sky,0.0,0
671,mercedes,AR,-34.6515,-59.4307,49.86,96,1,6.2,clear sky,0.0,0
672,teya,RU,60.3778,92.6267,65.97,56,74,2.37,broken clouds,0.0,0
673,maniitsoq,GL,65.4167,-52.9,42.8,97,100,11.41,light rain,0.21,0
674,northam,GB,51.0333,-4.2167,54.61,91,81,8.14,broken clouds,0.0,0
675,bato,PH,13.3528,123.3677,84.92,75,87,1.32,light rain,0.67,0
676,teahupoo,PF,-17.8333,-149.2667,69.76,79,54,15.43,light rain,0.13,0
677,baniyas,SY,35.1819,35.9487,76.26,68,0,6.17,clear sky,0.0,0
678,waingapu,ID,-9.6567,120.2641,81.82,61,74,17.27,broken clouds,0.0,0
679,bontang,ID,0.1333,117.5,83.75,67,100,3.18,overcast clouds,0.0,0
680,iguguno,TZ,-4.5697,34.6275,56.07,77,6,10.49,clear sky,0.0,0
681,vangaindrano,MG,-23.35,47.6,66.11,90,96,2.59,light rain,0.17,0
682,impfondo,CG,1.6381,18.0667,69.8,90,96,2.93,overcast clouds,0.0,0
683,sur,OM,22.5667,59.5289,86.76,67,100,6.2,overcast clouds,0.0,0
684,geraldton,AU,-28.7667,114.6,59.41,51,100,14.97,overcast clouds,0.0,0
685,krasnoye-na-volge,RU,57.5125,41.2419,63.03,73,27,1.72,scattered clouds,0.0,0
